[
  { "code": "ATL", "name": "Hartsfield–Jackson Atlanta International Airport", "city": "Atlanta", "country": "USA", "lat": 33.6407, "lng": -84.4277 },
  { "code": "PEK", "name": "Beijing Capital International Airport", "city": "Beijing", "country": "China", "lat": 40.0799, "lng": 116.6031 },
  { "code": "LAX", "name": "Los Angeles International Airport", "city": "Los Angeles", "country": "USA", "lat": 33.9416, "lng": -118.4085 },
  { "code": "DXB", "name": "Dubai International Airport", "city": "Dubai", "country": "UAE", "lat": 25.2532, "lng": 55.3657 },
  { "code": "HND", "name": "Tokyo Haneda Airport", "city": "Tokyo", "country": "Japan", "lat": 35.5494, "lng": 139.7798 },
  { "code": "ORD", "name": "O'Hare International Airport", "city": "Chicago", "country": "USA", "lat": 41.9742, "lng": -87.9073 },
  { "code": "LHR", "name": "Heathrow Airport", "city": "London", "country": "UK", "lat": 51.4700, "lng": -0.4543 },
  { "code": "HKG", "name": "Hong Kong International Airport", "city": "Hong Kong", "country": "China", "lat": 22.3080, "lng": 113.9185 },
  { "code": "PVG", "name": "Shanghai Pudong International Airport", "city": "Shanghai", "country": "China", "lat": 31.1443, "lng": 121.8083 },
  { "code": "CDG", "name": "Charles de Gaulle Airport", "city": "Paris", "country": "France", "lat": 49.0097, "lng": 2.5479 },
  { "code": "AMS", "name": "Amsterdam Schiphol Airport", "city": "Amsterdam", "country": "Netherlands", "lat": 52.3105, "lng": 4.7683 },
  { "code": "FRA", "name": "Frankfurt Airport", "city": "Frankfurt", "country": "Germany", "lat": 50.0379, "lng": 8.5622 },
  { "code": "SIN", "name": "Singapore Changi Airport", "city": "Singapore", "country": "Singapore", "lat": 1.3644, "lng": 103.9915 },
  { "code": "ICN", "name": "Incheon International Airport", "city": "Seoul", "country": "South Korea", "lat": 37.4602, "lng": 126.4407 },
  { "code": "SYD", "name": "Sydney Kingsford Smith Airport", "city": "Sydney", "country": "Australia", "lat": -33.9399, "lng": 151.1753 },
  { "code": "YYZ", "name": "Toronto Pearson International Airport", "city": "Toronto", "country": "Canada", "lat": 43.6777, "lng": -79.6248 },
  { "code": "GRU", "name": "São Paulo/Guarulhos International Airport", "city": "São Paulo", "country": "Brazil", "lat": -23.4356, "lng": -46.4731 },
  { "code": "MEX", "name": "Mexico City International Airport", "city": "Mexico City", "country": "Mexico", "lat": 19.4361, "lng": -99.0719 },
  { "code": "SFO", "name": "San Francisco International Airport", "city": "San Francisco", "country": "USA", "lat": 37.6213, "lng": -122.3790 },
  { "code": "SEA", "name": "Seattle–Tacoma International Airport", "city": "Seattle", "country": "USA", "lat": 47.4502, "lng": -122.3088 },
  { "code": "MIA", "name": "Miami International Airport", "city": "Miami", "country": "USA", "lat": 25.7959, "lng": -80.2870 },
  { "code": "DFW", "name": "Dallas/Fort Worth International Airport", "city": "Dallas", "country": "USA", "lat": 32.8998, "lng": -97.0403 },
  { "code": "JFK", "name": "John F. Kennedy International Airport", "city": "New York", "country": "USA", "lat": 40.6413, "lng": -73.7781 },
  { "code": "EWR", "name": "Newark Liberty International Airport", "city": "Newark", "country": "USA", "lat": 40.6895, "lng": -74.1745 },
  { "code": "BOS", "name": "Logan International Airport", "city": "Boston", "country": "USA", "lat": 42.3656, "lng": -71.0096 },
  { "code": "IAD", "name": "Dulles International Airport", "city": "Washington D.C.", "country": "USA", "lat": 38.9531, "lng": -77.4565 },
  { "code": "MAD", "name": "Adolfo Suárez Madrid–Barajas Airport", "city": "Madrid", "country": "Spain", "lat": 40.4983, "lng": -3.5676 },
  { "code": "BCN", "name": "Barcelona–El Prat Airport", "city": "Barcelona", "country": "Spain", "lat": 41.2974, "lng": 2.0833 },
  { "code": "FCO", "name": "Leonardo da Vinci–Fiumicino Airport", "city": "Rome", "country": "Italy", "lat": 41.8003, "lng": 12.2389 },
  { "code": "MUC", "name": "Munich Airport", "city": "Munich", "country": "Germany", "lat": 48.3538, "lng": 11.7861 },
  { "code": "ZRH", "name": "Zurich Airport", "city": "Zurich", "country": "Switzerland", "lat": 47.4581, "lng": 8.5555 },
  { "code": "CPT", "name": "Cape Town International Airport", "city": "Cape Town", "country": "South Africa", "lat": -33.9689, "lng": 18.5972 },
  { "code": "JNB", "name": "O. R. Tambo International Airport", "city": "Johannesburg", "country": "South Africa", "lat": -26.1337, "lng": 28.2420 }
]
